[
    {
        "ADDRESS": "1275 YORK AVENUE",
        "ALT_NAME": "NOT AVAILABLE",
        "BEDS": 514,
        "CITY": "NEW YORK",
        "COUNTRY": "USA",
        "COUNTY": "NEW YORK",
        "COUNTYFIPS": "36061",
        "HELIPAD": "NOT AVAILABLE",
        "ID": "0117510021",
        "LATITUDE": 40.7642743170001,
        "LONGITUDE": -73.956595517,
        "NAICS_CODE": "622310",
        "NAICS_DESC": "CANCER HOSPITALS",
        "NAME": "MEMORIAL SLOAN-KETTERING CANCER CENTER",
        "OBJECTID": 8449,
        "OWNER": "NON-PROFIT",
        "POPULATION": 514,
        "SOURCE": "http://www.health.ny.gov/regulations/hcra/provider.htm",
        "SOURCEDATE": "2017-12-21T00:00:00.000Z",
        "STATE": "NY",
        "STATE_ID": "7002020H",
        "STATUS": "OPEN",
        "ST_FIPS": "36",
        "TELEPHONE": "(212) 639-2000",
        "TRAUMA": "NOT AVAILABLE",
        "TTL_STAFF": -999,
        "TYPE": "SPECIAL",
        "VAL_DATE": "2017-12-22T00:00:00.000Z",
        "VAL_METHOD": "IMAGERY WITH OTHER",
        "WEBSITE": "https://www.mskcc.org/",
        "ZIP": "10021",
        "ZIP4": "NOT AVAILABLE"
    },
    {
        "ADDRESS": "450 BROOKLINE AVANUE",
        "ALT_NAME": "DANA-FARBER CANCER INSTITUTE",
        "BEDS": 30,
        "CITY": "BOSTON",
        "COUNTRY": "USA",
        "COUNTY": "SUFFOLK",
        "COUNTYFIPS": "25025",
        "HELIPAD": "N",
        "ID": "0002202115",
        "LATITUDE": 42.337615,
        "LONGITUDE": -71.1081829999999,
        "NAICS_CODE": "622110",
        "NAICS_DESC": "GENERAL MEDICAL AND SURGICAL HOSPITALS",
        "NAME": "DANA-FARBER CANCER INSTITUTE",
        "OBJECTID": 14472,
        "OWNER": "NON-PROFIT",
        "POPULATION": 30,
        "SOURCE": "http://www.mass.gov/eohhs/gov/departments/dph/programs/hcq/healthcare-quality/",
        "SOURCEDATE": "2018-02-16T00:00:00.000Z",
        "STATE": "MA",
        "STATE_ID": "2PW6",
        "STATUS": "OPEN",
        "ST_FIPS": "25",
        "TELEPHONE": "(617) 632-3000",
        "TRAUMA": "NOT AVAILABLE",
        "TTL_STAFF": -999,
        "TYPE": "GENERAL ACUTE CARE",
        "VAL_DATE": "2018-03-19T00:00:00.000Z",
        "VAL_METHOD": "IMAGERY WITH OTHER",
        "WEBSITE": "http://www.dana-farber.org",
        "ZIP": "02115",
        "ZIP4": "NOT AVAILABLE"
    },
    {
        "ADDRESS": "1975 4TH STREET",
        "ALT_NAME": "NOT AVAILABLE",
        "BEDS": 289,
        "CITY": "SAN FRANCISCO",
        "COUNTRY": "USA",
        "COUNTY": "SAN FRANCISCO",
        "COUNTYFIPS": "06075",
        "HELIPAD": "Y",
        "ID": "0059294158",
        "LATITUDE": 37.765480025,
        "LONGITUDE": -122.390070476,
        "NAICS_CODE": "622110",
        "NAICS_DESC": "GENERAL MEDICAL AND SURGICAL HOSPITALS",
        "NAME": "UCSF MEDICAL CENTER AT MISSION BAY",
        "OBJECTID": 9846,
        "OWNER": "GOVERNMENT - LOCAL",
        "POPULATION": 289,
        "SOURCE": "http://www.oshpd.ca.gov/HID/Facility-Listing.html",
        "SOURCEDATE": "2017-11-28T00:00:00.000Z",
        "STATE": "CA",
        "STATE_ID": "NOT AVAILABLE",
        "STATUS": "OPEN",
        "ST_FIPS": "06",
        "TELEPHONE": "NOT AVAILABLE",
        "TRAUMA": "NOT AVAILABLE",
        "TTL_STAFF": -999,
        "TYPE": "GENERAL ACUTE CARE",
        "VAL_DATE": "2017-12-11T00:00:00.000Z",
        "VAL_METHOD": "IMAGERY WITH OTHER",
        "WEBSITE": "http://www.ucsfmissionbayhospitals.org/",
        "ZIP": "94158",
        "ZIP4": "NOT AVAILABLE"
    },
    {
        "ADDRESS": "1200 NORTH STATE STREET",
        "ALT_NAME": "NOT AVAILABLE",
        "BEDS": 676,
        "CITY": "LOS ANGELES",
        "COUNTRY": "USA",
        "COUNTY": "LOS ANGELES",
        "COUNTYFIPS": "06037",
        "HELIPAD": "Y",
        "ID": "0024790033",
        "LATITUDE": 34.0595615890001,
        "LONGITUDE": -118.208356609,
        "NAICS_CODE": "622110",
        "NAICS_DESC": "GENERAL MEDICAL AND SURGICAL HOSPITALS",
        "NAME": "LAC+USC MEDICAL CENTER",
        "OBJECTID": 9148,
        "OWNER": "GOVERNMENT - LOCAL",
        "POPULATION": 676,
        "SOURCE": "http://www.oshpd.ca.gov/HID/Facility-Listing.html",
        "SOURCEDATE": "2017-11-28T00:00:00.000Z",
        "STATE": "CA",
        "STATE_ID": "NOT AVAILABLE",
        "STATUS": "OPEN",
        "ST_FIPS": "06",
        "TELEPHONE": "NOT AVAILABLE",
        "TRAUMA": "I, II PEDIATRIC",
        "TTL_STAFF": -999,
        "TYPE": "GENERAL ACUTE CARE",
        "VAL_DATE": "2017-12-05T00:00:00.000Z",
        "VAL_METHOD": "IMAGERY",
        "WEBSITE": "http://www.lacusc.org",
        "ZIP": "90033",
        "ZIP4": "NOT AVAILABLE"
    },
    {
        "ADDRESS": "1441 EASTLAKE AVENUE",
        "ALT_NAME": "NOT AVAILABLE",
        "BEDS": 60,
        "CITY": "LOS ANGELES",
        "COUNTRY": "USA",
        "COUNTY": "LOS ANGELES",
        "COUNTYFIPS": "06037",
        "HELIPAD": "NOT AVAILABLE",
        "ID": "0051390033",
        "LATITUDE": 34.0613554060001,
        "LONGITUDE": -118.204785509,
        "NAICS_CODE": "622110",
        "NAICS_DESC": "GENERAL MEDICAL AND SURGICAL HOSPITALS",
        "NAME": "USC KENNETH NORRIS, JR. CANCER HOSPITAL",
        "OBJECTID": 10020,
        "OWNER": "NON-PROFIT",
        "POPULATION": 60,
        "SOURCE": "http://www.oshpd.ca.gov/HID/Facility-Listing.html",
        "SOURCEDATE": "2017-11-28T00:00:00.000Z",
        "STATE": "CA",
        "STATE_ID": "NOT AVAILABLE",
        "STATUS": "OPEN",
        "ST_FIPS": "06",
        "TELEPHONE": "NOT AVAILABLE",
        "TRAUMA": "NOT AVAILABLE",
        "TTL_STAFF": -999,
        "TYPE": "GENERAL ACUTE CARE",
        "VAL_DATE": "2017-12-11T00:00:00.000Z",
        "VAL_METHOD": "IMAGERY WITH OTHER",
        "WEBSITE": "http://uscnorriscancer.usc.edu",
        "ZIP": "90033",
        "ZIP4": "NOT AVAILABLE"
    },
    {
        "ADDRESS": "525 EAST 68TH STREET",
        "ALT_NAME": "NOT AVAILABLE",
        "BEDS": 862,
        "CITY": "NEW YORK",
        "COUNTRY": "USA",
        "COUNTY": "NEW YORK",
        "COUNTYFIPS": "36061",
        "HELIPAD": "NOT AVAILABLE",
        "ID": "0118910021",
        "LATITUDE": 40.7645499400001,
        "LONGITUDE": -73.954332262,
        "NAICS_CODE": "622110",
        "NAICS_DESC": "GENERAL MEDICAL AND SURGICAL HOSPITALS",
        "NAME": "NEW YORK PRESBYTERIAN HOSPITAL - NEW YORK WEILL CORNELL CENTER",
        "OBJECTID": 13694,
        "OWNER": "NON-PROFIT",
        "POPULATION": 862,
        "SOURCE": "http://www.health.ny.gov/regulations/hcra/provider.htm",
        "SOURCEDATE": "2017-12-21T00:00:00.000Z",
        "STATE": "NY",
        "STATE_ID": "7002025H",
        "STATUS": "OPEN",
        "ST_FIPS": "36",
        "TELEPHONE": "(212) 746-5454",
        "TRAUMA": "I, II PEDIATRIC",
        "TTL_STAFF": -999,
        "TYPE": "GENERAL ACUTE CARE",
        "VAL_DATE": "2017-12-22T00:00:00.000Z",
        "VAL_METHOD": "IMAGERY WITH OTHER",
        "WEBSITE": "http://www.nyp.org/",
        "ZIP": "10021",
        "ZIP4": "NOT AVAILABLE"
    },
    {
        "ADDRESS": "2301 ERWIN ROAD",
        "ALT_NAME": "NOT AVAILABLE",
        "BEDS": 943,
        "CITY": "DURHAM",
        "COUNTRY": "USA",
        "COUNTY": "DURHAM",
        "COUNTYFIPS": "37063",
        "HELIPAD": "Y",
        "ID": "0006227710",
        "LATITUDE": 36.0070497990001,
        "LONGITUDE": -78.937758112,
        "NAICS_CODE": "622110",
        "NAICS_DESC": "GENERAL MEDICAL AND SURGICAL HOSPITALS",
        "NAME": "DUKE UNIVERSITY HOSPITAL",
        "OBJECTID": 11268,
        "OWNER": "NON-PROFIT",
        "POPULATION": 943,
        "SOURCE": "https://www2.ncdhhs.gov/dhsr/reports.htm",
        "SOURCEDATE": "2017-09-28T00:00:00.000Z",
        "STATE": "NC",
        "STATE_ID": "NOT AVAILABLE",
        "STATUS": "OPEN",
        "ST_FIPS": "37",
        "TELEPHONE": "(919) 684-8076",
        "TRAUMA": "LEVEL I",
        "TTL_STAFF": -999,
        "TYPE": "GENERAL ACUTE CARE",
        "VAL_DATE": "2017-11-09T00:00:00.000Z",
        "VAL_METHOD": "IMAGERY WITH OTHER",
        "WEBSITE": "http://www.dukehealth.org",
        "ZIP": "27710",
        "ZIP4": "NOT AVAILABLE"
    },
    {
        "ADDRESS": "1215 LEE STREET",
        "ALT_NAME": "NOT AVAILABLE",
        "BEDS": 614,
        "CITY": "CHARLOTTESVILLE",
        "COUNTRY": "USA",
        "COUNTY": "CHARLOTTESVILLE",
        "COUNTYFIPS": "51540",
        "HELIPAD": "Y",
        "ID": "0002222908",
        "LATITUDE": 38.0313397960001,
        "LONGITUDE": -78.498687078,
        "NAICS_CODE": "622110",
        "NAICS_DESC": "GENERAL MEDICAL AND SURGICAL HOSPITALS",
        "NAME": "UNIVERSITY OF VIRGINIA MEDICAL CENTER",
        "OBJECTID": 12958,
        "OWNER": "GOVERNMENT - STATE",
        "POPULATION": 614,
        "SOURCE": "http://www.vhi.org",
        "SOURCEDATE": "2017-11-13T00:00:00.000Z",
        "STATE": "VA",
        "STATE_ID": "NOT AVAILABLE",
        "STATUS": "OPEN",
        "ST_FIPS": "51",
        "TELEPHONE": "(434) 924-0210",
        "TRAUMA": "I",
        "TTL_STAFF": -999,
        "TYPE": "GENERAL ACUTE CARE",
        "VAL_DATE": "2018-01-26T00:00:00.000Z",
        "VAL_METHOD": "IMAGERY",
        "WEBSITE": "www.med.virginia.edu",
        "ZIP": "22906",
        "ZIP4": "NOT AVAILABLE"
    },
    {
        "ADDRESS": "1 GUSTAVE L LEVY PL",
        "ALT_NAME": "NOT AVAILABLE",
        "BEDS": 1144,
        "CITY": "NEW YORK",
        "COUNTRY": "USA",
        "COUNTY": "NEW YORK",
        "COUNTYFIPS": "36061",
        "HELIPAD": "NOT AVAILABLE",
        "ID": "0018710001",
        "LATITUDE": 40.7897675310001,
        "LONGITUDE": -73.9532142739999,
        "NAICS_CODE": "622110",
        "NAICS_DESC": "GENERAL MEDICAL AND SURGICAL HOSPITALS",
        "NAME": "MOUNT SINAI HOSPITAL",
        "OBJECTID": 13604,
        "OWNER": "NON-PROFIT",
        "POPULATION": 1144,
        "SOURCE": "http://www.health.ny.gov/regulations/hcra/provider.htm",
        "SOURCEDATE": "2017-12-21T00:00:00.000Z",
        "STATE": "NY",
        "STATE_ID": "7002024H",
        "STATUS": "OPEN",
        "ST_FIPS": "36",
        "TELEPHONE": "(212) 241-7005",
        "TRAUMA": "NOT AVAILABLE",
        "TTL_STAFF": -999,
        "TYPE": "GENERAL ACUTE CARE",
        "VAL_DATE": "2017-12-22T00:00:00.000Z",
        "VAL_METHOD": "IMAGERY WITH OTHER",
        "WEBSITE": "http://www.mountsinai.org",
        "ZIP": "10001",
        "ZIP4": "NOT AVAILABLE"
    },
    {
        "ADDRESS": "50 NORTH MEDICAL DRIVE",
        "ALT_NAME": "NOT AVAILABLE",
        "BEDS": 526,
        "CITY": "SALT LAKE CITY",
        "COUNTRY": "USA",
        "COUNTY": "SALT LAKE",
        "COUNTYFIPS": "49035",
        "HELIPAD": "Y",
        "ID": "0003384112",
        "LATITUDE": 40.771273093,
        "LONGITUDE": -111.836113021,
        "NAICS_CODE": "622110",
        "NAICS_DESC": "GENERAL MEDICAL AND SURGICAL HOSPITALS",
        "NAME": "UNIVERSITY OF UTAH HOSPITAL",
        "OBJECTID": 12130,
        "OWNER": "GOVERNMENT - STATE",
        "POPULATION": 526,
        "SOURCE": "http://gis.utah.gov/data/health/health-care-facilities/",
        "SOURCEDATE": "2017-12-14T00:00:00.000Z",
        "STATE": "UT",
        "STATE_ID": "NOT AVAILABLE",
        "STATUS": "OPEN",
        "ST_FIPS": "49",
        "TELEPHONE": "(801) 581-2121",
        "TRAUMA": "LEVEL I",
        "TTL_STAFF": -999,
        "TYPE": "GENERAL ACUTE CARE",
        "VAL_DATE": "2018-02-28T00:00:00.000Z",
        "VAL_METHOD": "IMAGERY",
        "WEBSITE": "http://www.uuhsc.utah.edu",
        "ZIP": "84112",
        "ZIP4": "NOT AVAILABLE"
    }
]